{
  "regions": [
    {
      "id": "bojonagara",
      "name": "Bojonagara",
      "color": "#90EE90",
      "spbuCount": 3,
      "spbeCount": 1,
      "locations": [
        {
          "id": "spbu-bojonagara-1",
          "name": "SPBU Bojonagara 1",
          "type": "SPBU",
          "address": "Jl. Bojonagara No. 45, Bandung",
          "services": ["Pertalite", "Pertamax", "Pertamax Turbo"],
          "hours": "24 Jam",
          "phone": "022-1234567"
        },
        {
          "id": "spbu-bojonagara-2",
          "name": "SPBU Bojonagara 2",
          "type": "SPBU",
          "address": "Jl. Raya Bojonagara No. 78, Bandung",
          "services": ["Pertalite", "Pertamax", "Dexlite"],
          "hours": "06:00 - 22:00",
          "phone": "022-1234568"
        },
        {
          "id": "spbu-bojonagara-3",
          "name": "SPBU Bojonagara 3",
          "type": "SPBU",
          "address": "Jl. Bojonagara Utara No. 123, Bandung",
          "services": ["Pertalite", "Pertamax"],
          "hours": "06:00 - 22:00",
          "phone": "022-1234569"
        },
        {
          "id": "spbe-bojonagara-1",
          "name": "SPBE Bojonagara",
          "type": "SPBE",
          "address": "Jl. Bojonagara Selatan No. 56, Bandung",
          "services": ["LPG 3kg", "LPG 12kg"],
          "hours": "08:00 - 20:00",
          "phone": "022-1234570"
        }
      ]
    },
    {
      "id": "cibeunying",
      "name": "Cibeunying",
      "color": "#32CD32",
      "spbuCount": 4,
      "spbeCount": 2,
      "locations": [
        {
          "id": "spbu-cibeunying-1",
          "name": "SPBU Cibeunying 1",
          "type": "SPBU",
          "address": "Jl. Cibeunying No. 89, Bandung",
          "services": ["Pertalite", "Pertamax", "Pertamax Turbo", "Dexlite"],
          "hours": "24 Jam",
          "phone": "022-1234571"
        },
        {
          "id": "spbu-cibeunying-2",
          "name": "SPBU Cibeunying 2",
          "type": "SPBU",
          "address": "Jl. Raya Cibeunying No. 234, Bandung",
          "services": ["Pertalite", "Pertamax"],
          "hours": "06:00 - 22:00",
          "phone": "022-1234572"
        },
        {
          "id": "spbu-cibeunying-3",
          "name": "SPBU Cibeunying 3",
          "type": "SPBU",
          "address": "Jl. Cibeunying Kaler No. 67, Bandung",
          "services": ["Pertalite", "Pertamax", "Dexlite"],
          "hours": "06:00 - 22:00",
          "phone": "022-1234573"
        },
        {
          "id": "spbu-cibeunying-4",
          "name": "SPBU Cibeunying 4",
          "type": "SPBU",
          "address": "Jl. Cibeunying Kidul No. 145, Bandung",
          "services": ["Pertalite", "Pertamax", "Pertamax Turbo"],
          "hours": "06:00 - 22:00",
          "phone": "022-1234574"
        },
        {
          "id": "spbe-cibeunying-1",
          "name": "SPBE Cibeunying 1",
          "type": "SPBE",
          "address": "Jl. Cibeunying Tengah No. 78, Bandung",
          "services": ["LPG 3kg", "LPG 12kg"],
          "hours": "08:00 - 20:00",
          "phone": "022-1234575"
        },
        {
          "id": "spbe-cibeunying-2",
          "name": "SPBE Cibeunying 2",
          "type": "SPBE",
          "address": "Jl. Cibeunying Barat No. 156, Bandung",
          "services": ["LPG 3kg", "LPG 12kg"],
          "hours": "08:00 - 20:00",
          "phone": "022-1234576"
        }
      ]
    },
    {
      "id": "tegallega",
      "name": "Tegallega",
      "color": "#FFB6C1",
      "spbuCount": 2,
      "spbeCount": 1,
      "locations": [
        {
          "id": "spbu-tegallega-1",
          "name": "SPBU Tegallega 1",
          "type": "SPBU",
          "address": "Jl. Tegallega No. 23, Bandung",
          "services": ["Pertalite", "Pertamax", "Pertamax Turbo"],
          "hours": "24 Jam",
          "phone": "022-1234577"
        },
        {
          "id": "spbu-tegallega-2",
          "name": "SPBU Tegallega 2",
          "type": "SPBU",
          "address": "Jl. Raya Tegallega No. 89, Bandung",
          "services": ["Pertalite", "Pertamax"],
          "hours": "06:00 - 22:00",
          "phone": "022-1234578"
        },
        {
          "id": "spbe-tegallega-1",
          "name": "SPBE Tegallega",
          "type": "SPBE",
          "address": "Jl. Tegallega Selatan No. 45, Bandung",
          "services": ["LPG 3kg", "LPG 12kg"],
          "hours": "08:00 - 20:00",
          "phone": "022-1234579"
        }
      ]
    },
    {
      "id": "karees",
      "name": "Karees",
      "color": "#87CEEB",
      "spbuCount": 3,
      "spbeCount": 1,
      "locations": [
        {
          "id": "spbu-karees-1",
          "name": "SPBU Karees 1",
          "type": "SPBU",
          "address": "Jl. Karees No. 67, Bandung",
          "services": ["Pertalite", "Pertamax", "Dexlite"],
          "hours": "24 Jam",
          "phone": "022-1234580"
        },
        {
          "id": "spbu-karees-2",
          "name": "SPBU Karees 2",
          "type": "SPBU",
          "address": "Jl. Raya Karees No. 134, Bandung",
          "services": ["Pertalite", "Pertamax", "Pertamax Turbo"],
          "hours": "06:00 - 22:00",
          "phone": "022-1234581"
        },
        {
          "id": "spbu-karees-3",
          "name": "SPBU Karees 3",
          "type": "SPBU",
          "address": "Jl. Karees Utara No. 89, Bandung",
          "services": ["Pertalite", "Pertamax"],
          "hours": "06:00 - 22:00",
          "phone": "022-1234582"
        },
        {
          "id": "spbe-karees-1",
          "name": "SPBE Karees",
          "type": "SPBE",
          "address": "Jl. Karees Selatan No. 56, Bandung",
          "services": ["LPG 3kg", "LPG 12kg"],
          "hours": "08:00 - 20:00",
          "phone": "022-1234583"
        }
      ]
    },
    {
      "id": "ujung-berung",
      "name": "Ujung Berung",
      "color": "#DDA0DD",
      "spbuCount": 5,
      "spbeCount": 2,
      "locations": [
        {
          "id": "spbu-ujung-berung-1",
          "name": "SPBU Ujung Berung 1",
          "type": "SPBU",
          "address": "Jl. Ujung Berung No. 123, Bandung",
          "services": ["Pertalite", "Pertamax", "Pertamax Turbo", "Dexlite"],
          "hours": "24 Jam",
          "phone": "022-1234584"
        },
        {
          "id": "spbu-ujung-berung-2",
          "name": "SPBU Ujung Berung 2",
          "type": "SPBU",
          "address": "Jl. Raya Ujung Berung No. 234, Bandung",
          "services": ["Pertalite", "Pertamax"],
          "hours": "06:00 - 22:00",
          "phone": "022-1234585"
        },
        {
          "id": "spbu-ujung-berung-3",
          "name": "SPBU Ujung Berung 3",
          "type": "SPBU",
          "address": "Jl. Ujung Berung Timur No. 67, Bandung",
          "services": ["Pertalite", "Pertamax", "Dexlite"],
          "hours": "06:00 - 22:00",
          "phone": "022-1234586"
        },
        {
          "id": "spbu-ujung-berung-4",
          "name": "SPBU Ujung Berung 4",
          "type": "SPBU",
          "address": "Jl. Ujung Berung Barat No. 145, Bandung",
          "services": ["Pertalite", "Pertamax", "Pertamax Turbo"],
          "hours": "06:00 - 22:00",
          "phone": "022-1234587"
        },
        {
          "id": "spbu-ujung-berung-5",
          "name": "SPBU Ujung Berung 5",
          "type": "SPBU",
          "address": "Jl. Ujung Berung Utara No. 89, Bandung",
          "services": ["Pertalite", "Pertamax"],
          "hours": "06:00 - 22:00",
          "phone": "022-1234588"
        },
        {
          "id": "spbe-ujung-berung-1",
          "name": "SPBE Ujung Berung 1",
          "type": "SPBE",
          "address": "Jl. Ujung Berung Tengah No. 78, Bandung",
          "services": ["LPG 3kg", "LPG 12kg"],
          "hours": "08:00 - 20:00",
          "phone": "022-1234589"
        },
        {
          "id": "spbe-ujung-berung-2",
          "name": "SPBE Ujung Berung 2",
          "type": "SPBE",
          "address": "Jl. Ujung Berung Selatan No. 156, Bandung",
          "services": ["LPG 3kg", "LPG 12kg"],
          "hours": "08:00 - 20:00",
          "phone": "022-1234590"
        }
      ]
    },
    {
      "id": "gede-bage",
      "name": "Gede Bage",
      "color": "#FFA500",
      "spbuCount": 4,
      "spbeCount": 2,
      "locations": [
        {
          "id": "spbu-gede-bage-1",
          "name": "SPBU Gede Bage 1",
          "type": "SPBU",
          "address": "Jl. Gede Bage No. 234, Bandung",
          "services": ["Pertalite", "Pertamax", "Pertamax Turbo", "Dexlite"],
          "hours": "24 Jam",
          "phone": "022-1234591"
        },
        {
          "id": "spbu-gede-bage-2",
          "name": "SPBU Gede Bage 2",
          "type": "SPBU",
          "address": "Jl. Raya Gede Bage No. 456, Bandung",
          "services": ["Pertalite", "Pertamax"],
          "hours": "06:00 - 22:00",
          "phone": "022-1234592"
        },
        {
          "id": "spbu-gede-bage-3",
          "name": "SPBU Gede Bage 3",
          "type": "SPBU",
          "address": "Jl. Gede Bage Timur No. 123, Bandung",
          "services": ["Pertalite", "Pertamax", "Dexlite"],
          "hours": "06:00 - 22:00",
          "phone": "022-1234593"
        },
        {
          "id": "spbu-gede-bage-4",
          "name": "SPBU Gede Bage 4",
          "type": "SPBU",
          "address": "Jl. Gede Bage Barat No. 345, Bandung",
          "services": ["Pertalite", "Pertamax", "Pertamax Turbo"],
          "hours": "06:00 - 22:00",
          "phone": "022-1234594"
        },
        {
          "id": "spbe-gede-bage-1",
          "name": "SPBE Gede Bage 1",
          "type": "SPBE",
          "address": "Jl. Gede Bage Tengah No. 178, Bandung",
          "services": ["LPG 3kg", "LPG 12kg"],
          "hours": "08:00 - 20:00",
          "phone": "022-1234595"
        },
        {
          "id": "spbe-gede-bage-2",
          "name": "SPBE Gede Bage 2",
          "type": "SPBE",
          "address": "Jl. Gede Bage Selatan No. 267, Bandung",
          "services": ["LPG 3kg", "LPG 12kg"],
          "hours": "08:00 - 20:00",
          "phone": "022-1234596"
        }
      ]
    }
  ]
}


